{"success":true,"data":{"centerMap":{"latitude":"NaN","longitude":"NaN"},"results":[{"id":"223571","location":{"latitude":33.8756605,"longitude":-118.282556},"title":"A Latte Hotte","infoType":"addressbox","address":{"zip":"90248","phone":"800-961-9416","state":"CA","address1":"17107 South Figueroa St","city":"Gardena"}},{"id":"216792","location":{"latitude":27.298371,"longitude":-82.523959},"title":"Beanz Man, Aka Lewis Holdings","infoType":"addressbox","address":{"zip":"34239","phone":"941-921-0800","state":"FL","address1":"2300 Bee Ridge Rd","address2":"Suite 401","city":"Sarasota"}},{"id":"216803","location":{"latitude":43.577735,"longitude":-116.273274},"title":"Evans Equipment Inc","infoType":"addressbox","address":{"zip":"83719","phone":"800-727-6389","state":"ID","address1":"2772 S Cole Rd Ste 140","city":"Boise"}},{"id":"216817","location":{"latitude":42.089797,"longitude":-76.807734},"title":"Stefano's Espresso Care","infoType":"addressbox","address":{"zip":"97437","phone":"541-935-1212","state":"OR","address1":"P O Box 355","city":"Elmira"}},{"id":"216797","location":{"latitude":40.919851,"longitude":-73.999825},"title":"Electra Craft Inc","infoType":"addressbox","address":{"zip":"7621","phone":"201-439-1700","state":"NJ","address1":"41 Woodbine Street","city":"Bergenfield"}},{"id":"216808","location":{"latitude":42.517526,"longitude":-83.199933},"title":"McNichols Electric - Royal Oak","infoType":"addressbox","address":{"zip":"48073","phone":"248-288-5135","state":"MI","address1":"4115 West 13 Mile Road","city":"Royal Oak"}},{"id":"216791","location":{"latitude":37.260453,"longitude":-121.929096},"title":"Appliance Repair Express","infoType":"addressbox","address":{"zip":"95124","phone":"408-371-8853","state":"CA","address1":"14894 Camden Ave","city":"San Jose"}},{"id":"216802","location":{"latitude":33.12745,"longitude":-117.07289},"title":"Mart's Appliance Service","infoType":"addressbox","address":{"zip":"92025","phone":"760-745-7711","state":"CA","address1":"743 E Valley Parkway","city":"Escondido"}},{"id":"216816","location":{"latitude":33.395377,"longitude":-80.346802},"title":"SmArt Deco","infoType":"addressbox","address":{"zip":"29048","phone":"561-620-0287","state":"SC","address1":"228 Porcher Ave","city":"Eutawville"}},{"id":"216796","location":{"latitude":41.61797,"longitude":-81.501611},"title":"Dimo Espresso Services","infoType":"addressbox","address":{"zip":"44132","phone":"216-210-0017","state":"OH","address1":"334, East 262nd Street","city":"Euclid"}},{"id":"216810","location":{"latitude":41.476742,"longitude":-81.836329},"title":"River Espresso","infoType":"addressbox","address":{"zip":"44116","phone":"216-544-4954","state":"OH","address1":"19277 Riverview  Ave","city":"Rocky River"}},{"id":"216790","location":{"latitude":47.626762,"longitude":-122.14502},"title":"Action Small Appliance Bellevu","infoType":"addressbox","address":{"zip":"98007","phone":"425-643-9806","state":"WA","address1":"14603 NE 20th street","city":"Bellevue"}},{"id":"216789","location":{"latitude":41.915186,"longitude":-87.748864},"title":"Coffee & Tea Exchange, The","infoType":"addressbox","address":{"zip":"60639","phone":"773-745-9295","state":"IL","address1":"4880 West Grand Ave","city":"Chicago"}},{"id":"216815","location":{"latitude":27.980123,"longitude":-82.380326},"title":"SIPS Dist LLC/MMSI Espres Serv","infoType":"addressbox","address":{"zip":"33619","phone":"813-655-0952","state":"FL","address1":"3904 Corporex Park Dr Suite 102","city":"Tampa"}},{"id":"216795","location":{"latitude":39.089547,"longitude":-77.240981},"title":"CoffeeTico Services","infoType":"addressbox","address":{"zip":"20878","phone":"301-424-3818","state":"MD","address1":"11504 Paramus Drive","city":"Gaitherburg"}},{"id":"216788","location":{"latitude":40.854121,"longitude":-73.888753},"title":"Cerini Coffee Services Inc","infoType":"addressbox","address":{"zip":"10458","phone":"718-584-6120","state":"NY","address1":"2334 Arthur Avenue","city":"Bronx"}},{"id":"216814","location":{"latitude":40.730406,"longitude":-73.274537},"title":"Turnpike Appliance Service","infoType":"addressbox","address":{"zip":"11706","phone":"631-665-8311","state":"NY","address1":"1253 Sunrise Highway","city":"Bay Shore"}},{"id":"216807","location":{"latitude":42.298179,"longitude":-83.263432},"title":"McNichols Electric - Dearborn","infoType":"addressbox","address":{"zip":"48124","phone":"303-563-7550","state":"MI","address1":"1836 Grindley Park","city":"Dearborn"}},{"id":"216813","location":{"latitude":40.757494,"longitude":-111.902973},"title":"Shea Service","infoType":"addressbox","address":{"zip":"84101","phone":"801-509-8979","state":"UT","address1":"532 S 400 West","city":"Salt Lake City"}},{"id":"216801","location":{"latitude":39.77238,"longitude":-104.989297},"title":"Liquiserve","infoType":"addressbox","address":{"zip":"80216","phone":"719-323-7803","state":"CO","address1":"4070 Globeville Rd","city":"Denver"}},{"id":"216806","location":{"latitude":42.009535,"longitude":-87.977805},"title":"Mati Coffee","infoType":"addressbox","address":{"zip":"60007","phone":"847-545-9605","state":"IL","address1":"681 Chase Ave","city":"Elkgrove Village"}},{"id":"216812","location":{"latitude":40.250909,"longitude":-75.285892},"title":"Services Unlimited Inc","infoType":"addressbox","address":{"zip":"19446","phone":"215-361-7000","state":"PA","address1":"650 N Cannon Ave","city":"Lansdale"}},{"id":"216793","location":{"latitude":33.674003,"longitude":-78.981694},"title":"Coffee Joe's Repair","infoType":"addressbox","address":{"zip":"29588","phone":"843-293-2886","state":"SC","address1":"524 Brooksher Drive","city":"Myrtle Beach"}},{"id":"216804","location":{"latitude":34.097933,"longitude":-118.273854},"title":"Hitechespresso.com","infoType":"addressbox","address":{"zip":"90039","phone":"877- 286- 2833","state":"CA","address1":"2013 Griffith Park Blvd","city":"Los Angeles"}},{"id":"216798","location":{"latitude":37.705468,"longitude":-121.701404},"title":"Espresso Equipment Services","infoType":"addressbox","address":{"zip":"94550","phone":"925-371-1313","state":"CA","address1":"7671 Hawthorn Place, Ste B-5","city":"Livermore"}},{"id":"216809","location":{"latitude":42.416283,"longitude":-83.181318},"title":"McNichols Electric Service Inc","infoType":"addressbox","address":{"zip":"48235","phone":"800-562-4226","state":"MI","address1":"13725 W McNichols Rd","city":"Detroit"}},{"id":"216800","location":{"latitude":32.917709,"longitude":-96.746875},"title":"Espresso RMI Inc","infoType":"addressbox","address":{"zip":"75243","phone":"972-690-6969","state":"TX","address1":"9039 Vantage Point Drive","city":"Dallas"}},{"id":"216794","location":{"latitude":35.471783,"longitude":-80.873605},"title":"Coffeeboss LLC, The","infoType":"addressbox","address":{"zip":"28031","phone":"704-987-3310","state":"NC","address1":"18910 Statesville Road","city":"Cornelius"}},{"id":"216805","location":{"latitude":44.948344,"longitude":-93.298257},"title":"Kitchen Window","infoType":"addressbox","address":{"zip":"55408","phone":"612-824-4417","state":"MN","address1":"3001 Hennepin Ave S","city":"Minneapolis"}},{"id":"216811","location":{"latitude":47.803741,"longitude":-122.326397},"title":"Seattle Coffee Gear","infoType":"addressbox","address":{"zip":"98036","phone":"866-372-4734","state":"WA","address1":"6911 216th ST SW Suite A","city":"Lynnwood"}},{"id":"216799","location":{"latitude":42.653747,"longitude":-83.033356},"title":"Espresso Machine Experts MI","infoType":"addressbox","address":{"zip":"48317","phone":"586-739-9500","state":"MI","address1":"48826 Van Dyke Ave","city":"Shelby Township"}}]}}